{"type": "FeatureCollection", "features": [{"type":"Feature","geometry":{"type":"Point","coordinates":[-80.823523,41.242751]},"properties":{"cartodb_id":4,"address":"417 Belmont St NW","sample_2":552,"sample_1":427,"sample_3":1037,"type":"home","sample_4":283,"sample_5":null,"sample_6":null,"sample_7":null,"sample_8":null,"sample_9":null,"sample_10":null,"sample_11":null,"sample_12":null,"sample_13":null,"sample_14":null}},{"type":"Feature","geometry":{"type":"Point","coordinates":[-80.799892,41.23153]},"properties":{"cartodb_id":16,"address":"Laird","sample_2":49,"sample_1":36,"sample_3":47,"type":"garden","sample_4":45,"sample_5":28,"sample_6":null,"sample_7":null,"sample_8":null,"sample_9":null,"sample_10":null,"sample_11":null,"sample_12":null,"sample_13":null,"sample_14":null}},{"type":"Feature","geometry":{"type":"Point","coordinates":[-80.84671,41.2515]},"properties":{"cartodb_id":2,"address":" 1916 Lexington Ave NW","sample_2":32,"sample_1":32,"sample_3":28,"type":"home","sample_4":85,"sample_5":null,"sample_6":null,"sample_7":null,"sample_8":null,"sample_9":null,"sample_10":null,"sample_11":null,"sample_12":null,"sample_13":null,"sample_14":null}},{"type":"Feature","geometry":{"type":"Point","coordinates":[-80.813689,41.240026]},"properties":{"cartodb_id":12,"address":"The Giving Tree Garden","sample_2":19,"sample_1":60,"sample_3":16,"type":"garden","sample_4":17,"sample_5":20,"sample_6":null,"sample_7":null,"sample_8":null,"sample_9":null,"sample_10":null,"sample_11":null,"sample_12":null,"sample_13":null,"sample_14":null}},{"type":"Feature","geometry":{"type":"Point","coordinates":[-80.815864,41.24386]},"properties":{"cartodb_id":11,"address":"Tree of Life ","sample_2":25,"sample_1":33,"sample_3":155,"type":"garden","sample_4":null,"sample_5":null,"sample_6":null,"sample_7":null,"sample_8":null,"sample_9":null,"sample_10":null,"sample_11":null,"sample_12":null,"sample_13":null,"sample_14":null}},{"type":"Feature","geometry":{"type":"Point","coordinates":[-80.815851,41.242092]},"properties":{"cartodb_id":15,"address":"Central City Garden","sample_2":27,"sample_1":17,"sample_3":24,"type":"garden","sample_4":22,"sample_5":100,"sample_6":null,"sample_7":null,"sample_8":null,"sample_9":null,"sample_10":null,"sample_11":null,"sample_12":null,"sample_13":null,"sample_14":null}},{"type":"Feature","geometry":{"type":"Point","coordinates":[-80.799031,41.239137]},"properties":{"cartodb_id":8,"address":"317 Bonnie Brae Ave NE","sample_2":349,"sample_1":95,"sample_3":534,"type":"home","sample_4":45,"sample_5":null,"sample_6":null,"sample_7":null,"sample_8":null,"sample_9":null,"sample_10":null,"sample_11":null,"sample_12":null,"sample_13":null,"sample_14":null}},{"type":"Feature","geometry":{"type":"Point","coordinates":[-80.824708,41.250394]},"properties":{"cartodb_id":9,"address":"Rooselvelt Community Garden","sample_2":32,"sample_1":16,"sample_3":16,"type":"garden","sample_4":28,"sample_5":26,"sample_6":null,"sample_7":null,"sample_8":null,"sample_9":null,"sample_10":null,"sample_11":null,"sample_12":null,"sample_13":null,"sample_14":null}},{"type":"Feature","geometry":{"type":"Point","coordinates":[-80.813505,41.24092]},"properties":{"cartodb_id":14,"address":"Vineyard on Vine","sample_2":93,"sample_1":67,"sample_3":358,"type":"garden","sample_4":196,"sample_5":null,"sample_6":null,"sample_7":null,"sample_8":null,"sample_9":null,"sample_10":null,"sample_11":null,"sample_12":null,"sample_13":null,"sample_14":null}},{"type":"Feature","geometry":{"type":"Point","coordinates":[-80.836576,41.238321]},"properties":{"cartodb_id":18,"address":"Dickey","sample_2":20,"sample_1":22,"sample_3":164,"type":"garden","sample_4":null,"sample_5":null,"sample_6":null,"sample_7":null,"sample_8":null,"sample_9":null,"sample_10":null,"sample_11":null,"sample_12":null,"sample_13":null,"sample_14":null}},{"type":"Feature","geometry":{"type":"Point","coordinates":[-80.794134,41.247804]},"properties":{"cartodb_id":7,"address":"1804 Hollywood St NE","sample_2":274,"sample_1":146,"sample_3":40,"type":"home","sample_4":198,"sample_5":null,"sample_6":null,"sample_7":null,"sample_8":null,"sample_9":null,"sample_10":null,"sample_11":null,"sample_12":null,"sample_13":null,"sample_14":null}},{"type":"Feature","geometry":null,"properties":{"cartodb_id":17,"address":"Victory","sample_2":19,"sample_1":null,"sample_3":29,"type":"garden","sample_4":24,"sample_5":37,"sample_6":61,"sample_7":38,"sample_8":null,"sample_9":null,"sample_10":null,"sample_11":null,"sample_12":null,"sample_13":null,"sample_14":null}},{"type":"Feature","geometry":{"type":"Point","coordinates":[-80.786204,41.24067]},"properties":{"cartodb_id":10,"address":"Garfield East (Former school)","sample_2":16,"sample_1":27,"sample_3":35,"type":"garden","sample_4":21,"sample_5":29,"sample_6":23,"sample_7":33,"sample_8":null,"sample_9":null,"sample_10":null,"sample_11":null,"sample_12":null,"sample_13":null,"sample_14":null}},{"type":"Feature","geometry":{"type":"Point","coordinates":[-80.813979,41.238948]},"properties":{"cartodb_id":13,"address":"Porter Street Garden","sample_2":28,"sample_1":12,"sample_3":38,"type":"garden","sample_4":123,"sample_5":null,"sample_6":null,"sample_7":null,"sample_8":null,"sample_9":null,"sample_10":null,"sample_11":null,"sample_12":null,"sample_13":null,"sample_14":null}},{"type":"Feature","geometry":{"type":"Point","coordinates":[-80.795498,41.24825]},"properties":{"cartodb_id":6,"address":"1737 Hollywood St NE","sample_2":532,"sample_1":75,"sample_3":89,"type":"home","sample_4":116,"sample_5":null,"sample_6":null,"sample_7":null,"sample_8":null,"sample_9":null,"sample_10":null,"sample_11":null,"sample_12":null,"sample_13":null,"sample_14":null}},{"type":"Feature","geometry":{"type":"Point","coordinates":[-80.814117,41.242164]},"properties":{"cartodb_id":5,"address":"355 Washington St NE","sample_2":1938,"sample_1":22500,"sample_3":2114,"type":"home","sample_4":368,"sample_5":8151,"sample_6":8022,"sample_7":4102,"sample_8":3437,"sample_9":1344,"sample_10":1496,"sample_11":6894,"sample_12":265,"sample_13":4193,"sample_14":173}},{"type":"Feature","geometry":{"type":"Point","coordinates":[-80.824154,41.242353]},"properties":{"cartodb_id":3,"address":"736 Mahoning Ave","sample_2":1400,"sample_1":1464,"sample_3":3027,"type":"home","sample_4":3339,"sample_5":290,"sample_6":3912,"sample_7":2710,"sample_8":357,"sample_9":303,"sample_10":904,"sample_11":213,"sample_12":null,"sample_13":null,"sample_14":null}}]}